timestamp,vib_x,vib_y,vib_z,vib_total,roll_deg,pitch_deg,yaw_deg,servo1,servo2,servo3,servo4,servo5,servo6
1782419266.054,0.04698,0.04093,0.02951,0.06895,-0.1,-1.98,-162.81,1500,1500,1500,1500,1500,1500
1782419266.386,0.04564,0.03297,0.03937,0.0687,-0.11,-1.98,-162.81,1500,1500,1500,1500,1500,1500
1782419266.718,0.04887,0.03775,0.03313,0.07008,-0.11,-1.98,-162.81,1500,1500,1500,1500,1500,1500
1782419267.052,0.03688,0.03337,0.03464,0.06061,-0.11,-1.99,-162.81,1500,1500,1500,1500,1500,1500
1782419267.385,0.04443,0.03434,0.03534,0.06635,-0.11,-1.99,-162.8,1500,1500,1500,1500,1500,1500
1782419267.719,0.04173,0.04335,0.03504,0.06963,-0.11,-1.98,-162.8,1500,1500,1500,1500,1500,1500
1782419268.051,0.03342,0.02575,0.03504,0.05484,-0.11,-1.99,-162.8,1500,1500,1500,1500,1500,1500
1782419268.381,0.04917,0.03125,0.03187,0.06641,-0.11,-1.99,-162.79,1500,1500,1500,1500,1500,1500
1782419268.716,0.03307,0.02523,0.03274,0.05293,-0.11,-1.99,-162.79,1500,1500,1500,1500,1500,1500
1782419269.048,0.05205,0.0282,0.03941,0.07112,-0.11,-1.99,-162.79,1500,1500,1500,1500,1500,1500
1782419269.383,0.03892,0.0259,0.03428,0.05797,-0.11,-2.0,-162.78,1500,1500,1500,1500,1500,1500
1782419269.716,0.03907,0.02845,0.03453,0.0594,-0.11,-2.0,-162.77,1500,1500,1500,1500,1500,1500
1782419270.047,0.03264,0.02544,0.04049,0.0579,-0.11,-1.99,-162.77,1500,1500,1500,1500,1500,1500
1782419270.381,0.02629,0.02787,0.03251,0.05024,-0.11,-2.0,-162.77,1500,1500,1500,1500,1500,1500
1782419270.713,0.05083,0.02878,0.03243,0.06681,-0.11,-2.0,-162.76,1500,1500,1500,1500,1500,1500
1782419271.046,0.50008,1.58789,1.10464,1.99792,-0.01,-1.96,-162.61,1500,1500,1500,1500,1500,1500
1782419271.383,1.11525,0.66783,0.65215,1.45434,10.07,26.82,-159.45,1500,1500,1500,1500,1500,1500
1782419271.715,0.41455,0.45515,0.59728,0.85776,30.57,44.44,-150.9,1500,1500,1500,1500,1500,1500
1782419272.046,0.5478,0.42235,0.51446,0.86205,53.43,30.49,-149.7,1500,1500,1500,1500,1500,1500
1782419272.378,0.55604,0.42344,0.64007,0.94772,37.9,0.02,-160.29,1500,1500,1500,1500,1500,1500
1782419272.712,0.84224,0.51674,0.69927,1.21053,22.82,-27.31,-165.49,1500,1500,1500,1500,1500,1500
1782419273.048,0.75679,0.59542,1.52174,1.80082,2.57,-42.82,-164.83,1500,1500,1500,1500,1500,1500
1782419273.379,0.25386,0.3179,0.39816,0.56924,-3.66,-41.22,-165.96,1500,1500,1500,1500,1500,1500
1782419273.708,0.54939,0.2294,0.52946,0.79673,-0.3,-37.49,-167.26,1500,1500,1500,1500,1500,1500
1782419274.043,0.15445,0.13519,0.11137,0.23352,-0.29,-32.91,-166.83,1500,1500,1500,1500,1500,1500
1782419274.376,0.09376,0.33829,0.07751,0.35949,-0.28,-31.73,-167.26,1500,1500,1500,1500,1500,1500
1782419274.711,0.25187,0.29068,0.42883,0.57604,-0.05,-25.19,-168.15,1500,1500,1500,1500,1500,1500
1782419275.045,1.17717,0.51991,0.82853,1.53052,3.81,19.0,-164.18,1500,1500,1500,1500,1500,1500
1782419275.376,0.48322,0.32401,0.40706,0.71006,22.53,47.82,-153.7,1500,1500,1500,1500,1500,1500
1782419275.707,0.20124,0.16206,0.19879,0.32601,26.66,49.18,-150.2,1500,1500,1500,1500,1500,1500
1782419276.045,0.13907,0.13264,0.42421,0.46571,26.93,44.9,-150.95,1500,1500,1500,1500,1500,1500
1782419276.375,0.20369,0.1552,0.66132,0.70917,23.09,35.26,-155.11,1500,1500,1500,1500,1500,1500
1782419276.708,0.43017,0.40375,0.58115,0.82813,22.67,1.7,-163.36,1500,1500,1500,1500,1500,1500
1782419277.042,0.48687,0.67926,0.70629,1.09421,50.83,9.96,-156.67,1500,1500,1500,1500,1500,1500
1782419277.373,0.29675,0.56733,0.72698,0.96872,102.28,3.03,-156.67,1500,1500,1500,1500,1500,1500
1782419277.71,0.16005,0.28133,0.53911,0.62881,108.8,0.79,-153.57,1500,1500,1500,1500,1500,1500
1782419278.043,0.18837,0.73581,1.11226,1.34685,81.26,3.16,-151.92,1500,1500,1500,1500,1500,1500
1782419278.373,0.74336,1.43444,1.48537,2.19466,-9.9,2.48,-161.14,1500,1500,1500,1500,1500,1500
1782419278.705,0.49224,0.64026,0.82996,1.15804,-51.76,2.68,-162.58,1500,1500,1500,1500,1500,1500
1782419279.04,0.41685,0.45141,0.43387,0.75219,-78.75,0.75,-158.52,1500,1500,1500,1500,1500,1500
1782419279.373,0.12865,0.20075,0.1873,0.3032,-85.24,-1.02,-155.92,1500,1500,1500,1500,1500,1500
1782419279.705,0.18549,0.19264,0.35495,0.44442,-79.14,-1.05,-155.73,1500,1500,1500,1500,1500,1500
1782419280.037,0.5053,1.83725,1.24121,2.27408,-26.98,1.55,-157.0,1500,1500,1500,1500,1500,1500
1782419280.373,0.40256,1.22616,1.15182,1.7298,12.44,-4.07,166.52,1500,1500,1500,1500,1500,1500
1782419280.702,0.30952,0.40991,0.34174,0.61694,19.55,5.17,151.99,1500,1500,1500,1500,1500,1500
1782419281.039,0.47974,0.96056,0.5414,1.20247,19.37,3.09,-155.49,1500,1500,1500,1500,1500,1500
1782419281.37,0.3951,0.49823,0.57878,0.85984,24.0,0.39,-128.16,1500,1500,1500,1500,1500,1500
1782419281.703,0.65178,1.34125,0.78018,1.68298,12.92,4.4,-151.57,1500,1500,1500,1500,1500,1500
1782419282.034,0.36888,0.44293,0.35637,0.67769,2.75,11.23,170.42,1500,1500,1500,1500,1500,1500
1782419282.37,0.32286,0.2286,0.2858,0.48803,4.49,5.96,147.53,1500,1500,1500,1500,1500,1500
1782419282.7,0.81862,0.65311,0.5743,1.19437,9.17,8.81,175.6,1500,1500,1500,1500,1500,1500
1782419283.033,0.4662,0.45647,0.42432,0.7783,13.26,10.93,-152.08,1500,1500,1500,1500,1500,1500
1782419283.369,0.25324,1.05608,0.54778,1.21635,11.97,10.42,-159.97,1500,1500,1500,1500,1500,1500
1782419283.7,0.32363,0.33714,0.29092,0.55049,8.94,4.53,163.19,1500,1500,1500,1500,1500,1500
1782419284.03,0.24786,0.38762,0.52674,0.69938,10.86,2.81,175.1,1500,1500,1500,1500,1500,1500
1782419284.37,0.34745,0.59608,0.50043,0.85233,17.35,16.51,-141.91,1500,1500,1500,1500,1500,1500
1782419284.696,0.75447,1.1938,0.52228,1.50571,21.81,26.78,-148.77,1500,1500,1500,1500,1500,1500
1782419285.032,0.76317,0.66546,0.79686,1.28851,22.38,1.69,-159.82,1500,1500,1500,1500,1500,1500
1782419285.368,1.21042,1.61701,5.90264,6.23867,-0.08,-2.07,-162.62,1500,1500,1500,1500,1500,1500
1782419285.697,0.55975,1.09057,0.81502,1.47205,-0.1,-1.99,-164.56,1500,1500,1500,1500,1500,1500
1782419286.034,0.57462,0.64291,0.70221,1.11203,-0.11,-1.99,-165.6,1500,1500,1500,1500,1500,1500
1782419286.369,0.11287,0.1072,0.10885,0.18995,-0.12,-1.93,-165.65,1500,1500,1500,1500,1500,1500
1782419286.696,0.03379,0.08059,0.04495,0.09827,-0.13,-1.98,-165.68,1500,1500,1500,1500,1500,1500
1782419287.031,0.02477,0.02578,0.03073,0.04714,-0.13,-1.98,-165.72,1500,1500,1500,1500,1500,1500
1782419287.367,0.03562,0.03027,0.03035,0.05573,-0.13,-1.98,-165.77,1500,1500,1500,1500,1500,1500
1782419287.692,0.04291,0.03406,0.03453,0.06476,-0.13,-1.98,-165.83,1500,1500,1500,1500,1500,1500
1782419288.029,0.02448,0.02265,0.02944,0.04449,-0.13,-1.98,-165.87,1500,1500,1500,1500,1500,1500
1782419288.367,0.50293,0.15514,0.07422,0.53152,-0.15,-1.97,-165.91,1500,1500,1500,1500,1500,1500
1782419288.695,0.1228,0.09578,0.03483,0.15958,-0.2,-1.97,-165.65,1500,1500,1500,1500,1500,1500
1782419289.026,0.02699,0.04317,0.09551,0.10823,-0.21,-1.96,-165.68,1500,1500,1500,1500,1500,1500
1782419289.367,0.02327,0.03147,0.05436,0.06698,-0.2,-1.95,-165.71,1500,1500,1500,1500,1500,1500
1782419289.697,0.01942,0.01981,0.03285,0.04299,-0.18,-1.94,-165.76,1500,1500,1500,1500,1500,1500
1782419290.03,0.02274,0.02004,0.03592,0.047,-0.18,-1.93,-165.79,1500,1500,1500,1500,1500,1500
